{"class":"VERSION","release":"3.6","rev":"3.6","proto_major":3,"proto_minor":7}
{"class":"DEVICES","devices":[{"class":"DEVICE","path":"/dev/gps0","activated":"2014-08-05T17:22:15.156Z","flags":1,"driver":"Generic NMEA","native":1,"bps":9600,"parity":"N","stopbits":1,"cycle":1.00},{"class":"DEVICE","path":"/dev/ttyACM0"}]}
{"class":"WATCH","enable":true,"json":true,"nmea":false,"raw":0,"scaled":false,"timing":false}
{"class":"SKY","tag":"GSV","device":"/dev/gps0","xdop":2.49,"ydop":6.32,"vdop":1.93,"tdop":2.02,"hdop":6.79,"gdop":7.35,"pdop":7.06,"satellites":[{"PRN":1,"el":13,"az":272,"ss":20,"used":false},{"PRN":3,"el":72,"az":241,"ss":0,"used":false},{"PRN":11,"el":30,"az":284,"ss":26,"used":false},{"PRN":14,"el":24,"az":124,"ss":0,"used":false},{"PRN":15,"el":0,"az":22,"ss":0,"used":false},{"PRN":16,"el":13,"az":197,"ss":11,"used":true},{"PRN":18,"el":29,"az":54,"ss":0,"used":false},{"PRN":19,"el":74,"az":285,"ss":36,"used":true},{"PRN":21,"el":10,"az":86,"ss":0,"used":false},{"PRN":22,"el":65,"az":79,"ss":37,"used":true},{"PRN":27,"el":67,"az":161,"ss":29,"used":true},{"PRN":28,"el":7,"az":334,"ss":0,"used":false},{"PRN":32,"el":18,"az":212,"ss":13,"used":false}]}
{"class":"TPV","tag":"GLL","device":"/dev/gps0","mode":3,"time":"2014-08-05T17:22:16.000Z","ept":0.005,"lat":48.320095000,"lon":16.209228333,"alt":207.900,"epx":37.371,"epy":94.794,"epv":44.388,"track":0.0000,"speed":1.271,"climb":0.000,"eps":189.59}
{"class":"SKY","tag":"GSV","device":"/dev/gps0","satellites":[{"PRN":1,"el":13,"az":272,"ss":19,"used":false},{"PRN":3,"el":72,"az":241,"ss":0,"used":false},{"PRN":11,"el":30,"az":284,"ss":28,"used":false},{"PRN":14,"el":24,"az":124,"ss":0,"used":false},{"PRN":15,"el":0,"az":22,"ss":0,"used":false},{"PRN":16,"el":13,"az":197,"ss":9,"used":false},{"PRN":18,"el":29,"az":54,"ss":0,"used":false},{"PRN":19,"el":74,"az":285,"ss":36,"used":true},{"PRN":21,"el":10,"az":86,"ss":0,"used":false},{"PRN":22,"el":65,"az":79,"ss":37,"used":true},{"PRN":27,"el":67,"az":161,"ss":29,"used":true},{"PRN":28,"el":7,"az":334,"ss":0,"used":false},{"PRN":32,"el":18,"az":212,"ss":13,"used":false}]}
{"class":"TPV","tag":"GLL","device":"/dev/gps0","mode":3,"time":"2014-08-05T17:22:17.000Z","ept":0.005,"lat":48.320086667,"lon":16.209221667,"alt":208.000,"epx":37.371,"epy":94.794,"epv":44.388,"track":0.0000,"speed":1.147,"climb":0.000,"eps":189.59}
{"class":"SKY","tag":"GSV","device":"/dev/gps0","satellites":[{"PRN":1,"el":13,"az":272,"ss":19,"used":false},{"PRN":3,"el":72,"az":241,"ss":0,"used":false},{"PRN":11,"el":30,"az":284,"ss":29,"used":false},{"PRN":14,"el":24,"az":124,"ss":0,"used":false},{"PRN":15,"el":0,"az":22,"ss":0,"used":false},{"PRN":16,"el":13,"az":197,"ss":8,"used":false},{"PRN":18,"el":29,"az":54,"ss":0,"used":false},{"PRN":19,"el":74,"az":285,"ss":36,"used":true},{"PRN":21,"el":10,"az":86,"ss":0,"used":false},{"PRN":22,"el":65,"az":79,"ss":37,"used":true},{"PRN":27,"el":67,"az":161,"ss":30,"used":true},{"PRN":28,"el":7,"az":334,"ss":0,"used":false},{"PRN":32,"el":18,"az":212,"ss":17,"used":false}]}
{"class":"TPV","tag":"GLL","device":"/dev/gps0","mode":3,"time":"2014-08-05T17:22:18.000Z","ept":0.005,"lat":48.320078333,"lon":16.209220000,"alt":208.000,"epv":23.000,"track":0.0000,"speed":0.746,"climb":0.000}
{"class":"SKY","tag":"GSV","device":"/dev/gps0","satellites":[{"PRN":1,"el":13,"az":272,"ss":19,"used":false},{"PRN":3,"el":72,"az":241,"ss":0,"used":false},{"PRN":11,"el":30,"az":284,"ss":28,"used":false},{"PRN":14,"el":24,"az":124,"ss":0,"used":false},{"PRN":15,"el":0,"az":22,"ss":0,"used":false},{"PRN":16,"el":13,"az":197,"ss":8,"used":false},{"PRN":18,"el":29,"az":54,"ss":0,"used":false},{"PRN":19,"el":74,"az":285,"ss":32,"used":true},{"PRN":21,"el":10,"az":86,"ss":0,"used":false},{"PRN":22,"el":65,"az":79,"ss":37,"used":true},{"PRN":27,"el":67,"az":161,"ss":29,"used":true},{"PRN":28,"el":7,"az":334,"ss":0,"used":false},{"PRN":32,"el":18,"az":212,"ss":18,"used":false}]}
{"class":"TPV","tag":"GLL","device":"/dev/gps0","mode":3,"time":"2014-08-05T17:22:19.000Z","ept":0.005,"lat":48.320063333,"lon":16.209223333,"alt":208.100,"epv":23.000,"track":0.0000,"speed":0.489,"climb":0.000}
{"class":"SKY","tag":"GSV","device":"/dev/gps0","xdop":2.49,"ydop":6.32,"vdop":1.93,"tdop":2.02,"hdop":6.79,"gdop":7.35,"pdop":7.06,"satellites":[{"PRN":1,"el":13,"az":272,"ss":18,"used":false},{"PRN":3,"el":72,"az":241,"ss":0,"used":false},{"PRN":11,"el":30,"az":284,"ss":28,"used":false},{"PRN":14,"el":24,"az":124,"ss":0,"used":false},{"PRN":15,"el":0,"az":22,"ss":0,"used":false},{"PRN":16,"el":13,"az":197,"ss":8,"used":false},{"PRN":18,"el":29,"az":54,"ss":14,"used":true},{"PRN":19,"el":74,"az":285,"ss":31,"used":true},{"PRN":21,"el":10,"az":86,"ss":0,"used":false},{"PRN":22,"el":65,"az":79,"ss":36,"used":true},{"PRN":27,"el":67,"az":161,"ss":31,"used":true},{"PRN":28,"el":7,"az":334,"ss":0,"used":false},{"PRN":32,"el":18,"az":212,"ss":18,"used":false}]}
{"class":"TPV","tag":"GLL","device":"/dev/gps0","mode":3,"time":"2014-08-05T17:22:20.000Z","ept":0.005,"lat":48.320050000,"lon":16.209221667,"alt":208.100,"epx":37.371,"epy":94.794,"epv":23.000,"track":0.0000,"speed":0.293,"climb":0.000}
{"class":"SKY","tag":"GSV","device":"/dev/gps0","xdop":2.49,"ydop":6.32,"vdop":1.93,"tdop":2.02,"hdop":6.79,"gdop":7.35,"pdop":7.06,"satellites":[{"PRN":1,"el":13,"az":272,"ss":16,"used":false},{"PRN":3,"el":72,"az":241,"ss":0,"used":false},{"PRN":11,"el":30,"az":284,"ss":28,"used":false},{"PRN":14,"el":24,"az":124,"ss":0,"used":false},{"PRN":15,"el":0,"az":22,"ss":0,"used":false},{"PRN":16,"el":13,"az":197,"ss":8,"used":false},{"PRN":18,"el":29,"az":54,"ss":13,"used":true},{"PRN":19,"el":74,"az":285,"ss":31,"used":true},{"PRN":21,"el":10,"az":86,"ss":0,"used":false},{"PRN":22,"el":65,"az":79,"ss":35,"used":true},{"PRN":27,"el":67,"az":161,"ss":31,"used":true},{"PRN":28,"el":7,"az":334,"ss":0,"used":false},{"PRN":32,"el":18,"az":212,"ss":18,"used":false}]}
{"class":"TPV","tag":"GLL","device":"/dev/gps0","mode":3,"time":"2014-08-05T17:22:21.000Z","ept":0.005,"lat":48.320040000,"lon":16.209223333,"alt":208.100,"epx":37.371,"epy":94.794,"epv":44.388,"track":0.0000,"speed":0.340,"climb":0.000,"eps":189.59}
{"class":"SKY","tag":"GSV","device":"/dev/gps0","satellites":[{"PRN":1,"el":13,"az":272,"ss":15,"used":false},{"PRN":3,"el":72,"az":241,"ss":0,"used":false},{"PRN":11,"el":30,"az":284,"ss":29,"used":false},{"PRN":14,"el":25,"az":123,"ss":0,"used":false},{"PRN":15,"el":0,"az":22,"ss":0,"used":false},{"PRN":16,"el":13,"az":197,"ss":0,"used":false},{"PRN":18,"el":29,"az":54,"ss":9,"used":false},{"PRN":19,"el":74,"az":285,"ss":31,"used":true},{"PRN":21,"el":10,"az":86,"ss":0,"used":false},{"PRN":22,"el":65,"az":79,"ss":35,"used":true},{"PRN":27,"el":67,"az":161,"ss":32,"used":true},{"PRN":28,"el":7,"az":334,"ss":0,"used":false},{"PRN":32,"el":18,"az":212,"ss":18,"used":false}]}
{"class":"TPV","tag":"GLL","device":"/dev/gps0","mode":3,"time":"2014-08-05T17:22:22.000Z","ept":0.005,"lat":48.320031667,"lon":16.209226667,"alt":208.100,"epx":37.371,"epy":94.794,"epv":44.388,"track":0.0000,"speed":0.334,"climb":0.000,"eps":189.59}
{"class":"SKY","tag":"GSV","device":"/dev/gps0","satellites":[{"PRN":1,"el":13,"az":272,"ss":13,"used":false},{"PRN":3,"el":72,"az":241,"ss":0,"used":false},{"PRN":11,"el":30,"az":284,"ss":28,"used":false},{"PRN":14,"el":25,"az":123,"ss":0,"used":false},{"PRN":15,"el":0,"az":22,"ss":0,"used":false},{"PRN":16,"el":13,"az":197,"ss":0,"used":false},{"PRN":18,"el":29,"az":54,"ss":0,"used":false},{"PRN":19,"el":74,"az":285,"ss":32,"used":true},{"PRN":21,"el":10,"az":86,"ss":0,"used":false},{"PRN":22,"el":65,"az":79,"ss":34,"used":true},{"PRN":27,"el":67,"az":161,"ss":32,"used":true},{"PRN":28,"el":7,"az":334,"ss":0,"used":false},{"PRN":32,"el":18,"az":212,"ss":18,"used":false}]}
{"class":"TPV","tag":"GLL","device":"/dev/gps0","mode":3,"time":"2014-08-05T17:22:23.000Z","ept":0.005,"lat":48.320023333,"lon":16.209226667,"alt":208.100,"epv":23.000,"track":0.0000,"speed":0.231,"climb":0.000}
{"class":"SKY","tag":"GSV","device":"/dev/gps0","satellites":[{"PRN":1,"el":13,"az":272,"ss":12,"used":false},{"PRN":3,"el":72,"az":241,"ss":0,"used":false},{"PRN":11,"el":30,"az":284,"ss":28,"used":false},{"PRN":14,"el":25,"az":123,"ss":0,"used":false},{"PRN":15,"el":0,"az":22,"ss":0,"used":false},{"PRN":16,"el":13,"az":197,"ss":0,"used":false},{"PRN":18,"el":29,"az":54,"ss":0,"used":false},{"PRN":19,"el":74,"az":285,"ss":32,"used":true},{"PRN":21,"el":10,"az":86,"ss":0,"used":false},{"PRN":22,"el":65,"az":79,"ss":34,"used":true},{"PRN":27,"el":67,"az":161,"ss":31,"used":true},{"PRN":28,"el":7,"az":334,"ss":0,"used":false},{"PRN":32,"el":18,"az":212,"ss":19,"used":false}]}
{"class":"TPV","tag":"GLL","device":"/dev/gps0","mode":3,"time":"2014-08-05T17:22:24.000Z","ept":0.005,"lat":48.320016667,"lon":16.209225000,"alt":208.100,"epv":23.000,"track":0.0000,"speed":0.113,"climb":0.000}
{"class":"SKY","tag":"GSV","device":"/dev/gps0","satellites":[{"PRN":1,"el":13,"az":272,"ss":12,"used":false},{"PRN":3,"el":72,"az":241,"ss":0,"used":false},{"PRN":11,"el":30,"az":284,"ss":26,"used":false},{"PRN":14,"el":25,"az":123,"ss":0,"used":false},{"PRN":15,"el":0,"az":22,"ss":0,"used":false},{"PRN":16,"el":13,"az":197,"ss":0,"used":false},{"PRN":18,"el":29,"az":54,"ss":0,"used":false},{"PRN":19,"el":74,"az":285,"ss":33,"used":true},{"PRN":21,"el":10,"az":86,"ss":0,"used":false},{"PRN":22,"el":65,"az":79,"ss":34,"used":true},{"PRN":27,"el":67,"az":161,"ss":31,"used":true},{"PRN":28,"el":7,"az":334,"ss":0,"used":false},{"PRN":32,"el":18,"az":212,"ss":19,"used":false}]}
{"class":"TPV","tag":"GLL","device":"/dev/gps0","mode":3,"time":"2014-08-05T17:22:25.000Z","ept":0.005,"lat":48.320006667,"lon":16.209228333,"alt":208.100,"epv":23.000,"track":0.0000,"speed":0.340,"climb":0.000}
{"class":"SKY","tag":"GSV","device":"/dev/gps0","satellites":[{"PRN":1,"el":13,"az":272,"ss":11,"used":false},{"PRN":3,"el":72,"az":241,"ss":0,"used":false},{"PRN":11,"el":30,"az":284,"ss":25,"used":false},{"PRN":14,"el":25,"az":123,"ss":0,"used":false},{"PRN":15,"el":0,"az":22,"ss":0,"used":false},{"PRN":16,"el":13,"az":197,"ss":0,"used":false},{"PRN":18,"el":28,"az":54,"ss":0,"used":false},{"PRN":19,"el":74,"az":285,"ss":32,"used":true},{"PRN":21,"el":10,"az":86,"ss":0,"used":false},{"PRN":22,"el":65,"az":79,"ss":34,"used":true},{"PRN":27,"el":67,"az":161,"ss":33,"used":true},{"PRN":28,"el":7,"az":334,"ss":0,"used":false},{"PRN":32,"el":18,"az":212,"ss":21,"used":false}]}
{"class":"TPV","tag":"GLL","device":"/dev/gps0","mode":3,"time":"2014-08-05T17:22:26.000Z","ept":0.005,"lat":48.320003333,"lon":16.209226667,"alt":208.100,"epv":23.000,"track":0.0000,"speed":0.144,"climb":0.000}
{"class":"SKY","tag":"GSV","device":"/dev/gps0","satellites":[{"PRN":1,"el":13,"az":272,"ss":10,"used":false},{"PRN":3,"el":72,"az":241,"ss":0,"used":false},{"PRN":11,"el":30,"az":284,"ss":24,"used":false},{"PRN":14,"el":25,"az":123,"ss":0,"used":false},{"PRN":15,"el":0,"az":22,"ss":0,"used":false},{"PRN":16,"el":13,"az":197,"ss":0,"used":false},{"PRN":18,"el":28,"az":54,"ss":0,"used":false},{"PRN":19,"el":75,"az":283,"ss":31,"used":true},{"PRN":21,"el":10,"az":86,"ss":0,"used":false},{"PRN":22,"el":65,"az":79,"ss":35,"used":true},{"PRN":27,"el":67,"az":161,"ss":32,"used":true},{"PRN":28,"el":7,"az":334,"ss":0,"used":false},{"PRN":32,"el":18,"az":212,"ss":22,"used":false}]}
{"class":"TPV","tag":"GLL","device":"/dev/gps0","mode":3,"time":"2014-08-05T17:22:27.000Z","ept":0.005,"lat":48.319998333,"lon":16.209220000,"alt":208.100,"epv":23.000,"track":0.0000,"speed":0.108,"climb":0.000}
{"class":"SKY","tag":"GSV","device":"/dev/gps0","satellites":[{"PRN":1,"el":13,"az":272,"ss":8,"used":false},{"PRN":3,"el":72,"az":241,"ss":0,"used":false},{"PRN":11,"el":30,"az":284,"ss":23,"used":false},{"PRN":14,"el":25,"az":123,"ss":0,"used":false},{"PRN":15,"el":0,"az":22,"ss":0,"used":false},{"PRN":16,"el":13,"az":197,"ss":0,"used":false},{"PRN":18,"el":28,"az":54,"ss":0,"used":false},{"PRN":19,"el":75,"az":283,"ss":31,"used":true},{"PRN":21,"el":10,"az":86,"ss":0,"used":false},{"PRN":22,"el":65,"az":79,"ss":35,"used":true},{"PRN":27,"el":67,"az":161,"ss":31,"used":true},{"PRN":28,"el":7,"az":334,"ss":0,"used":false},{"PRN":32,"el":18,"az":212,"ss":25,"used":false}]}
{"class":"TPV","tag":"GLL","device":"/dev/gps0","mode":3,"time":"2014-08-05T17:22:28.000Z","ept":0.005,"lat":48.319993333,"lon":16.209220000,"alt":208.100,"epv":23.000,"track":0.0000,"speed":0.134,"climb":0.000}
{"class":"SKY","tag":"GSV","device":"/dev/gps0","satellites":[{"PRN":1,"el":13,"az":272,"ss":0,"used":false},{"PRN":3,"el":72,"az":241,"ss":0,"used":false},{"PRN":11,"el":30,"az":284,"ss":22,"used":false},{"PRN":14,"el":25,"az":123,"ss":0,"used":false},{"PRN":15,"el":0,"az":22,"ss":0,"used":false},{"PRN":16,"el":13,"az":197,"ss":0,"used":false},{"PRN":18,"el":28,"az":54,"ss":0,"used":false},{"PRN":19,"el":75,"az":283,"ss":32,"used":true},{"PRN":21,"el":10,"az":87,"ss":0,"used":false},{"PRN":22,"el":65,"az":79,"ss":35,"used":true},{"PRN":27,"el":67,"az":161,"ss":32,"used":true},{"PRN":28,"el":7,"az":334,"ss":0,"used":false},{"PRN":32,"el":18,"az":212,"ss":26,"used":false}]}
{"class":"TPV","tag":"GLL","device":"/dev/gps0","mode":3,"time":"2014-08-05T17:22:29.000Z","ept":0.005,"lat":48.319998333,"lon":16.209213333,"alt":208.100,"epv":23.000,"track":0.0000,"speed":0.406,"climb":0.000}
{"class":"SKY","tag":"GSV","device":"/dev/gps0","satellites":[{"PRN":1,"el":13,"az":272,"ss":0,"used":false},{"PRN":3,"el":72,"az":241,"ss":0,"used":false},{"PRN":11,"el":30,"az":284,"ss":23,"used":false},{"PRN":14,"el":25,"az":123,"ss":0,"used":false},{"PRN":15,"el":0,"az":22,"ss":0,"used":false},{"PRN":16,"el":13,"az":197,"ss":0,"used":false},{"PRN":18,"el":28,"az":54,"ss":0,"used":false},{"PRN":19,"el":75,"az":283,"ss":31,"used":true},{"PRN":21,"el":10,"az":87,"ss":0,"used":false},{"PRN":22,"el":65,"az":78,"ss":35,"used":true},{"PRN":27,"el":67,"az":161,"ss":32,"used":true},{"PRN":28,"el":7,"az":334,"ss":0,"used":false},{"PRN":32,"el":18,"az":212,"ss":26,"used":false}]}
{"class":"TPV","tag":"GLL","device":"/dev/gps0","mode":3,"time":"2014-08-05T17:22:30.000Z","ept":0.005,"lat":48.319996667,"lon":16.209211667,"alt":208.100,"epv":23.000,"track":0.0000,"speed":0.298,"climb":0.000}
{"class":"SKY","tag":"GSV","device":"/dev/gps0","satellites":[{"PRN":1,"el":13,"az":272,"ss":0,"used":false},{"PRN":3,"el":72,"az":241,"ss":0,"used":false},{"PRN":11,"el":30,"az":284,"ss":22,"used":false},{"PRN":14,"el":25,"az":123,"ss":0,"used":false},{"PRN":15,"el":0,"az":22,"ss":0,"used":false},{"PRN":16,"el":13,"az":197,"ss":0,"used":false},{"PRN":18,"el":28,"az":54,"ss":0,"used":false},{"PRN":19,"el":75,"az":283,"ss":32,"used":true},{"PRN":21,"el":10,"az":87,"ss":0,"used":false},{"PRN":22,"el":65,"az":78,"ss":35,"used":true},{"PRN":27,"el":67,"az":161,"ss":27,"used":true},{"PRN":28,"el":7,"az":334,"ss":0,"used":false},{"PRN":32,"el":18,"az":212,"ss":26,"used":false}]}
{"class":"TPV","tag":"GLL","device":"/dev/gps0","mode":3,"time":"2014-08-05T17:22:31.000Z","ept":0.005,"lat":48.319993333,"lon":16.209215000,"alt":208.100,"epv":23.000,"track":0.0000,"speed":0.257,"climb":0.000}
{"class":"SKY","tag":"GSV","device":"/dev/gps0","satellites":[{"PRN":1,"el":13,"az":272,"ss":0,"used":false},{"PRN":3,"el":72,"az":241,"ss":0,"used":false},{"PRN":11,"el":30,"az":284,"ss":23,"used":false},{"PRN":14,"el":25,"az":123,"ss":0,"used":false},{"PRN":15,"el":0,"az":22,"ss":0,"used":false},{"PRN":16,"el":13,"az":197,"ss":0,"used":false},{"PRN":18,"el":28,"az":54,"ss":0,"used":false},{"PRN":19,"el":75,"az":283,"ss":33,"used":true},{"PRN":21,"el":10,"az":87,"ss":0,"used":false},{"PRN":22,"el":65,"az":78,"ss":35,"used":true},{"PRN":27,"el":67,"az":161,"ss":34,"used":true},{"PRN":28,"el":7,"az":334,"ss":0,"used":false},{"PRN":32,"el":18,"az":212,"ss":25,"used":false}]}
{"class":"TPV","tag":"GLL","device":"/dev/gps0","mode":3,"time":"2014-08-05T17:22:32.000Z","ept":0.005,"lat":48.319990000,"lon":16.209223333,"alt":208.100,"epv":23.000,"track":0.0000,"speed":0.617,"climb":0.000}
{"class":"SKY","tag":"GSV","device":"/dev/gps0","satellites":[{"PRN":1,"el":13,"az":272,"ss":0,"used":false},{"PRN":3,"el":72,"az":241,"ss":0,"used":false},{"PRN":11,"el":30,"az":284,"ss":22,"used":false},{"PRN":14,"el":25,"az":123,"ss":0,"used":false},{"PRN":15,"el":0,"az":22,"ss":0,"used":false},{"PRN":16,"el":13,"az":197,"ss":0,"used":false},{"PRN":18,"el":28,"az":54,"ss":0,"used":false},{"PRN":19,"el":75,"az":283,"ss":32,"used":true},{"PRN":21,"el":10,"az":87,"ss":0,"used":false},{"PRN":22,"el":65,"az":78,"ss":35,"used":true},{"PRN":27,"el":67,"az":161,"ss":34,"used":true},{"PRN":28,"el":7,"az":334,"ss":0,"used":false},{"PRN":32,"el":18,"az":212,"ss":24,"used":false}]}
{"class":"TPV","tag":"GLL","device":"/dev/gps0","mode":3,"time":"2014-08-05T17:22:33.000Z","ept":0.005,"lat":48.319986667,"lon":16.209221667,"alt":208.100,"epv":23.000,"track":0.0000,"speed":0.453,"climb":0.000}
{"class":"SKY","tag":"GSV","device":"/dev/gps0","satellites":[{"PRN":1,"el":13,"az":272,"ss":0,"used":false},{"PRN":3,"el":72,"az":241,"ss":0,"used":false},{"PRN":11,"el":30,"az":284,"ss":22,"used":false},{"PRN":14,"el":25,"az":123,"ss":0,"used":false},{"PRN":15,"el":0,"az":22,"ss":0,"used":false},{"PRN":16,"el":13,"az":197,"ss":0,"used":false},{"PRN":18,"el":28,"az":54,"ss":0,"used":false},{"PRN":19,"el":75,"az":283,"ss":32,"used":true},{"PRN":21,"el":10,"az":87,"ss":0,"used":false},{"PRN":22,"el":65,"az":78,"ss":35,"used":true},{"PRN":27,"el":67,"az":161,"ss":29,"used":true},{"PRN":28,"el":7,"az":334,"ss":0,"used":false},{"PRN":32,"el":18,"az":212,"ss":24,"used":false}]}
{"class":"TPV","tag":"GLL","device":"/dev/gps0","mode":3,"time":"2014-08-05T17:22:34.000Z","ept":0.005,"lat":48.319991667,"lon":16.209228333,"alt":208.100,"epv":23.000,"track":0.0000,"speed":0.288,"climb":0.000}
{"class":"SKY","tag":"GSV","device":"/dev/gps0","satellites":[{"PRN":1,"el":13,"az":272,"ss":0,"used":false},{"PRN":3,"el":72,"az":241,"ss":0,"used":false},{"PRN":11,"el":30,"az":284,"ss":26,"used":false},{"PRN":14,"el":25,"az":123,"ss":0,"used":false},{"PRN":15,"el":0,"az":22,"ss":0,"used":false},{"PRN":16,"el":13,"az":197,"ss":0,"used":false},{"PRN":18,"el":28,"az":54,"ss":0,"used":false},{"PRN":19,"el":75,"az":283,"ss":32,"used":true},{"PRN":21,"el":10,"az":87,"ss":0,"used":false},{"PRN":22,"el":65,"az":78,"ss":35,"used":true},{"PRN":27,"el":66,"az":161,"ss":32,"used":true},{"PRN":28,"el":7,"az":334,"ss":0,"used":false},{"PRN":32,"el":18,"az":212,"ss":22,"used":false}]}
{"class":"TPV","tag":"GLL","device":"/dev/gps0","mode":3,"time":"2014-08-05T17:22:35.000Z","ept":0.005,"lat":48.319991667,"lon":16.209228333,"alt":208.100,"epv":23.000,"track":0.0000,"speed":0.304,"climb":0.000}
{"class":"SKY","tag":"GSV","device":"/dev/gps0","satellites":[{"PRN":1,"el":13,"az":272,"ss":0,"used":false},{"PRN":3,"el":72,"az":241,"ss":0,"used":false},{"PRN":11,"el":30,"az":284,"ss":27,"used":false},{"PRN":14,"el":25,"az":123,"ss":0,"used":false},{"PRN":15,"el":0,"az":22,"ss":0,"used":false},{"PRN":16,"el":13,"az":197,"ss":0,"used":false},{"PRN":18,"el":28,"az":54,"ss":0,"used":false},{"PRN":19,"el":75,"az":283,"ss":33,"used":true},{"PRN":21,"el":10,"az":87,"ss":0,"used":false},{"PRN":22,"el":65,"az":78,"ss":35,"used":true},{"PRN":27,"el":66,"az":161,"ss":28,"used":true},{"PRN":28,"el":7,"az":333,"ss":0,"used":false},{"PRN":32,"el":18,"az":212,"ss":20,"used":false}]}
{"class":"TPV","tag":"GLL","device":"/dev/gps0","mode":3,"time":"2014-08-05T17:22:36.000Z","ept":0.005,"lat":48.319990000,"lon":16.209230000,"alt":208.100,"epv":23.000,"track":0.0000,"speed":0.381,"climb":0.000}
{"class":"SKY","tag":"GSV","device":"/dev/gps0","satellites":[{"PRN":1,"el":13,"az":272,"ss":0,"used":false},{"PRN":3,"el":72,"az":241,"ss":0,"used":false},{"PRN":11,"el":30,"az":284,"ss":29,"used":false},{"PRN":14,"el":25,"az":123,"ss":0,"used":false},{"PRN":15,"el":0,"az":22,"ss":0,"used":false},{"PRN":16,"el":13,"az":197,"ss":0,"used":false},{"PRN":18,"el":28,"az":54,"ss":0,"used":false},{"PRN":19,"el":75,"az":283,"ss":32,"used":true},{"PRN":21,"el":10,"az":87,"ss":0,"used":false},{"PRN":22,"el":65,"az":78,"ss":35,"used":true},{"PRN":27,"el":66,"az":161,"ss":29,"used":true},{"PRN":28,"el":7,"az":333,"ss":0,"used":false},{"PRN":32,"el":18,"az":212,"ss":20,"used":false}]}
{"class":"TPV","tag":"GLL","device":"/dev/gps0","mode":3,"time":"2014-08-05T17:22:37.000Z","ept":0.005,"lat":48.319995000,"lon":16.209233333,"alt":208.100,"epv":23.000,"track":0.0000,"speed":0.268,"climb":0.000}
{"class":"SKY","tag":"GSV","device":"/dev/gps0","satellites":[{"PRN":1,"el":13,"az":272,"ss":0,"used":false},{"PRN":3,"el":72,"az":241,"ss":0,"used":false},{"PRN":11,"el":30,"az":284,"ss":29,"used":false},{"PRN":14,"el":25,"az":123,"ss":0,"used":false},{"PRN":15,"el":0,"az":22,"ss":0,"used":false},{"PRN":16,"el":13,"az":197,"ss":0,"used":false},{"PRN":18,"el":28,"az":54,"ss":0,"used":false},{"PRN":19,"el":75,"az":283,"ss":33,"used":true},{"PRN":21,"el":10,"az":87,"ss":0,"used":false},{"PRN":22,"el":65,"az":78,"ss":35,"used":true},{"PRN":27,"el":66,"az":161,"ss":29,"used":true},{"PRN":28,"el":7,"az":333,"ss":0,"used":false},{"PRN":32,"el":18,"az":212,"ss":21,"used":false}]}
{"class":"TPV","tag":"GLL","device":"/dev/gps0","mode":3,"time":"2014-08-05T17:22:38.000Z","ept":0.005,"lat":48.320006667,"lon":16.209230000,"alt":208.100,"epv":23.000,"track":0.0000,"speed":0.221,"climb":0.000}
{"class":"SKY","tag":"GSV","device":"/dev/gps0","satellites":[{"PRN":1,"el":13,"az":272,"ss":0,"used":false},{"PRN":3,"el":72,"az":241,"ss":0,"used":false},{"PRN":11,"el":30,"az":284,"ss":30,"used":false},{"PRN":14,"el":25,"az":123,"ss":0,"used":false},{"PRN":15,"el":0,"az":22,"ss":0,"used":false},{"PRN":16,"el":13,"az":197,"ss":0,"used":false},{"PRN":18,"el":28,"az":54,"ss":0,"used":false},{"PRN":19,"el":75,"az":283,"ss":33,"used":true},{"PRN":21,"el":10,"az":87,"ss":0,"used":false},{"PRN":22,"el":65,"az":78,"ss":35,"used":true},{"PRN":27,"el":66,"az":161,"ss":28,"used":true},{"PRN":28,"el":7,"az":333,"ss":0,"used":false},{"PRN":32,"el":18,"az":212,"ss":23,"used":false}]}
{"class":"TPV","tag":"GLL","device":"/dev/gps0","mode":3,"time":"2014-08-05T17:22:39.000Z","ept":0.005,"lat":48.320006667,"lon":16.209233333,"alt":208.100,"epv":23.000,"track":0.0000,"speed":0.108,"climb":0.000}
{"class":"SKY","tag":"GSV","device":"/dev/gps0","satellites":[{"PRN":1,"el":13,"az":272,"ss":0,"used":false},{"PRN":3,"el":72,"az":241,"ss":0,"used":false},{"PRN":11,"el":30,"az":284,"ss":30,"used":false},{"PRN":14,"el":25,"az":123,"ss":0,"used":false},{"PRN":15,"el":0,"az":22,"ss":0,"used":false},{"PRN":16,"el":13,"az":197,"ss":0,"used":false},{"PRN":18,"el":28,"az":54,"ss":0,"used":false},{"PRN":19,"el":75,"az":283,"ss":34,"used":true},{"PRN":21,"el":10,"az":87,"ss":0,"used":false},{"PRN":22,"el":65,"az":78,"ss":36,"used":true},{"PRN":27,"el":66,"az":161,"ss":28,"used":true},{"PRN":28,"el":7,"az":333,"ss":0,"used":false},{"PRN":32,"el":18,"az":212,"ss":24,"used":false}]}
{"class":"TPV","tag":"GLL","device":"/dev/gps0","mode":3,"time":"2014-08-05T17:22:40.000Z","ept":0.005,"lat":48.320010000,"lon":16.209230000,"alt":208.100,"epv":23.000,"track":0.0000,"speed":0.057,"climb":0.000}
{"class":"SKY","tag":"GSV","device":"/dev/gps0","satellites":[{"PRN":1,"el":13,"az":272,"ss":0,"used":false},{"PRN":3,"el":72,"az":241,"ss":0,"used":false},{"PRN":11,"el":30,"az":284,"ss":30,"used":false},{"PRN":14,"el":25,"az":123,"ss":0,"used":false},{"PRN":15,"el":0,"az":22,"ss":0,"used":false},{"PRN":16,"el":13,"az":197,"ss":0,"used":false},{"PRN":18,"el":28,"az":54,"ss":0,"used":false},{"PRN":19,"el":75,"az":283,"ss":34,"used":true},{"PRN":21,"el":10,"az":87,"ss":0,"used":false},{"PRN":22,"el":65,"az":78,"ss":36,"used":true},{"PRN":27,"el":66,"az":161,"ss":27,"used":true},{"PRN":28,"el":7,"az":333,"ss":19,"used":false},{"PRN":32,"el":18,"az":212,"ss":25,"used":false}]}
{"class":"TPV","tag":"GLL","device":"/dev/gps0","mode":3,"time":"2014-08-05T17:22:41.000Z","ept":0.005,"lat":48.320020000,"lon":16.209231667,"alt":208.100,"epv":23.000,"track":0.0000,"speed":0.360,"climb":0.000}
{"class":"SKY","tag":"GSV","device":"/dev/gps0","xdop":2.41,"ydop":6.27,"vdop":1.94,"tdop":1.96,"hdop":6.72,"gdop":7.26,"pdop":6.99,"satellites":[{"PRN":1,"el":13,"az":272,"ss":0,"used":false},{"PRN":3,"el":72,"az":241,"ss":0,"used":false},{"PRN":11,"el":30,"az":284,"ss":30,"used":false},{"PRN":14,"el":25,"az":123,"ss":0,"used":false},{"PRN":15,"el":0,"az":22,"ss":0,"used":false},{"PRN":16,"el":13,"az":197,"ss":0,"used":false},{"PRN":18,"el":28,"az":54,"ss":14,"used":true},{"PRN":19,"el":75,"az":283,"ss":34,"used":true},{"PRN":21,"el":10,"az":87,"ss":0,"used":false},{"PRN":22,"el":65,"az":78,"ss":36,"used":true},{"PRN":27,"el":66,"az":161,"ss":28,"used":true},{"PRN":28,"el":7,"az":333,"ss":18,"used":false},{"PRN":32,"el":18,"az":212,"ss":25,"used":false}]}
{"class":"TPV","tag":"GLL","device":"/dev/gps0","mode":3,"time":"2014-08-05T17:22:42.000Z","ept":0.005,"lat":48.320026667,"lon":16.209233333,"alt":208.100,"epx":36.165,"epy":94.102,"epv":23.000,"track":0.0000,"speed":0.376,"climb":0.000}
{"class":"SKY","tag":"GSV","device":"/dev/gps0","xdop":2.41,"ydop":6.27,"vdop":1.94,"tdop":1.96,"hdop":6.72,"gdop":7.26,"pdop":6.99,"satellites":[{"PRN":1,"el":13,"az":272,"ss":0,"used":false},{"PRN":3,"el":72,"az":241,"ss":0,"used":false},{"PRN":11,"el":30,"az":284,"ss":28,"used":false},{"PRN":14,"el":25,"az":123,"ss":0,"used":false},{"PRN":15,"el":0,"az":22,"ss":0,"used":false},{"PRN":16,"el":13,"az":197,"ss":0,"used":false},{"PRN":18,"el":28,"az":54,"ss":14,"used":true},{"PRN":19,"el":75,"az":283,"ss":33,"used":true},{"PRN":21,"el":10,"az":87,"ss":0,"used":false},{"PRN":22,"el":65,"az":78,"ss":35,"used":true},{"PRN":27,"el":66,"az":161,"ss":29,"used":true},{"PRN":28,"el":7,"az":333,"ss":17,"used":false},{"PRN":32,"el":18,"az":212,"ss":25,"used":false}]}
{"class":"TPV","tag":"GLL","device":"/dev/gps0","mode":3,"time":"2014-08-05T17:22:43.000Z","ept":0.005,"lat":48.320030000,"lon":16.209225000,"alt":208.100,"epx":36.165,"epy":94.102,"epv":44.518,"track":0.0000,"speed":0.453,"climb":0.000,"eps":188.20}
{"class":"SKY","tag":"GSV","device":"/dev/gps0","xdop":2.41,"ydop":6.27,"vdop":1.94,"tdop":1.96,"hdop":6.72,"gdop":7.26,"pdop":6.99,"satellites":[{"PRN":1,"el":13,"az":272,"ss":0,"used":false},{"PRN":3,"el":72,"az":241,"ss":0,"used":false},{"PRN":11,"el":30,"az":284,"ss":32,"used":false},{"PRN":14,"el":25,"az":123,"ss":0,"used":false},{"PRN":15,"el":0,"az":22,"ss":0,"used":false},{"PRN":16,"el":13,"az":197,"ss":0,"used":false},{"PRN":18,"el":28,"az":54,"ss":13,"used":true},{"PRN":19,"el":75,"az":283,"ss":39,"used":true},{"PRN":21,"el":10,"az":87,"ss":0,"used":false},{"PRN":22,"el":65,"az":78,"ss":38,"used":true},{"PRN":27,"el":66,"az":161,"ss":39,"used":true},{"PRN":28,"el":7,"az":333,"ss":17,"used":false},{"PRN":32,"el":18,"az":212,"ss":26,"used":false}]}
{"class":"TPV","tag":"GLL","device":"/dev/gps0","mode":3,"time":"2014-08-05T17:22:44.000Z","ept":0.005,"lat":48.320048333,"lon":16.209215000,"alt":208.100,"epx":36.165,"epy":94.102,"epv":44.518,"track":0.0000,"speed":0.484,"climb":0.000,"eps":188.20}
{"class":"SKY","tag":"GSV","device":"/dev/gps0","xdop":2.41,"ydop":6.27,"vdop":1.94,"tdop":1.96,"hdop":6.72,"gdop":7.26,"pdop":6.99,"satellites":[{"PRN":1,"el":13,"az":272,"ss":0,"used":false},{"PRN":3,"el":72,"az":241,"ss":0,"used":false},{"PRN":11,"el":30,"az":284,"ss":25,"used":false},{"PRN":14,"el":25,"az":123,"ss":0,"used":false},{"PRN":15,"el":0,"az":22,"ss":0,"used":false},{"PRN":16,"el":13,"az":197,"ss":0,"used":false},{"PRN":18,"el":28,"az":54,"ss":12,"used":true},{"PRN":19,"el":75,"az":283,"ss":34,"used":true},{"PRN":21,"el":10,"az":87,"ss":0,"used":false},{"PRN":22,"el":65,"az":78,"ss":38,"used":true},{"PRN":27,"el":66,"az":161,"ss":34,"used":true},{"PRN":28,"el":7,"az":333,"ss":19,"used":false},{"PRN":32,"el":18,"az":212,"ss":25,"used":false}]}
{"class":"TPV","tag":"GLL","device":"/dev/gps0","mode":3,"time":"2014-08-05T17:22:45.000Z","ept":0.005,"lat":48.320043333,"lon":16.209216667,"alt":208.100,"epx":36.165,"epy":94.102,"epv":44.518,"track":0.0000,"speed":0.175,"climb":0.000,"eps":188.20}
{"class":"SKY","tag":"GSV","device":"/dev/gps0","satellites":[{"PRN":1,"el":13,"az":272,"ss":0,"used":false},{"PRN":3,"el":72,"az":241,"ss":0,"used":false},{"PRN":11,"el":30,"az":284,"ss":27,"used":false},{"PRN":14,"el":25,"az":123,"ss":0,"used":false},{"PRN":15,"el":0,"az":22,"ss":0,"used":false},{"PRN":16,"el":13,"az":197,"ss":0,"used":false},{"PRN":18,"el":28,"az":54,"ss":0,"used":false},{"PRN":19,"el":75,"az":283,"ss":33,"used":true},{"PRN":21,"el":10,"az":87,"ss":0,"used":false},{"PRN":22,"el":65,"az":78,"ss":38,"used":true},{"PRN":27,"el":66,"az":161,"ss":34,"used":true},{"PRN":28,"el":7,"az":333,"ss":18,"used":false},{"PRN":32,"el":18,"az":212,"ss":26,"used":false}]}
{"class":"TPV","tag":"GLL","device":"/dev/gps0","mode":3,"time":"2014-08-05T17:22:46.000Z","ept":0.005,"lat":48.320030000,"lon":16.209218333,"alt":208.100,"epx":36.165,"epy":94.102,"epv":44.518,"track":0.0000,"speed":0.252,"climb":0.000,"eps":188.20}
{"class":"SKY","tag":"GSV","device":"/dev/gps0","satellites":[{"PRN":1,"el":13,"az":272,"ss":0,"used":false},{"PRN":3,"el":72,"az":241,"ss":0,"used":false},{"PRN":11,"el":30,"az":284,"ss":35,"used":false},{"PRN":14,"el":25,"az":123,"ss":0,"used":false},{"PRN":15,"el":0,"az":22,"ss":0,"used":false},{"PRN":16,"el":13,"az":197,"ss":0,"used":false},{"PRN":18,"el":28,"az":54,"ss":0,"used":false},{"PRN":19,"el":75,"az":283,"ss":35,"used":true},{"PRN":21,"el":10,"az":87,"ss":0,"used":false},{"PRN":22,"el":65,"az":78,"ss":39,"used":true},{"PRN":27,"el":66,"az":161,"ss":34,"used":true},{"PRN":28,"el":7,"az":333,"ss":18,"used":false},{"PRN":32,"el":18,"az":212,"ss":27,"used":false}]}
{"class":"TPV","tag":"GLL","device":"/dev/gps0","mode":3,"time":"2014-08-05T17:22:47.000Z","ept":0.005,"lat":48.320020000,"lon":16.209223333,"alt":208.100,"epv":23.000,"track":0.0000,"speed":0.463,"climb":0.000}
{"class":"SKY","tag":"GSV","device":"/dev/gps0","satellites":[{"PRN":1,"el":13,"az":272,"ss":0,"used":false},{"PRN":3,"el":72,"az":241,"ss":0,"used":false},{"PRN":11,"el":30,"az":284,"ss":32,"used":false},{"PRN":14,"el":25,"az":123,"ss":0,"used":false},{"PRN":15,"el":0,"az":22,"ss":0,"used":false},{"PRN":16,"el":13,"az":197,"ss":0,"used":false},{"PRN":18,"el":28,"az":54,"ss":0,"used":false},{"PRN":19,"el":75,"az":283,"ss":35,"used":true},{"PRN":21,"el":10,"az":87,"ss":0,"used":false},{"PRN":22,"el":65,"az":78,"ss":39,"used":true},{"PRN":27,"el":66,"az":161,"ss":33,"used":true},{"PRN":28,"el":7,"az":333,"ss":17,"used":false},{"PRN":32,"el":18,"az":212,"ss":26,"used":false}]}
{"class":"TPV","tag":"GLL","device":"/dev/gps0","mode":3,"time":"2014-08-05T17:22:48.000Z","ept":0.005,"lat":48.320006667,"lon":16.209226667,"alt":208.100,"epv":23.000,"track":0.0000,"speed":0.550,"climb":0.000}
{"class":"SKY","tag":"GSV","device":"/dev/gps0","xdop":2.41,"ydop":6.27,"vdop":1.94,"tdop":1.96,"hdop":6.72,"gdop":7.26,"pdop":6.99,"satellites":[{"PRN":1,"el":13,"az":272,"ss":0,"used":false},{"PRN":3,"el":72,"az":241,"ss":0,"used":false},{"PRN":11,"el":30,"az":284,"ss":31,"used":false},{"PRN":14,"el":25,"az":123,"ss":0,"used":false},{"PRN":15,"el":0,"az":22,"ss":0,"used":false},{"PRN":16,"el":13,"az":197,"ss":0,"used":false},{"PRN":18,"el":28,"az":54,"ss":16,"used":true},{"PRN":19,"el":75,"az":283,"ss":35,"used":true},{"PRN":21,"el":10,"az":87,"ss":0,"used":false},{"PRN":22,"el":65,"az":78,"ss":39,"used":true},{"PRN":27,"el":66,"az":161,"ss":33,"used":true},{"PRN":28,"el":7,"az":333,"ss":18,"used":false},{"PRN":32,"el":18,"az":212,"ss":27,"used":false}]}
{"class":"TPV","tag":"GLL","device":"/dev/gps0","mode":3,"time":"2014-08-05T17:22:49.000Z","ept":0.005,"lat":48.320003333,"lon":16.209231667,"alt":208.200,"epx":36.165,"epy":94.102,"epv":23.000,"track":0.0000,"speed":0.412,"climb":0.000}
{"class":"SKY","tag":"GSV","device":"/dev/gps0","xdop":2.41,"ydop":6.27,"vdop":1.94,"tdop":1.96,"hdop":6.72,"gdop":7.26,"pdop":6.99,"satellites":[{"PRN":1,"el":13,"az":272,"ss":0,"used":false},{"PRN":3,"el":72,"az":241,"ss":0,"used":false},{"PRN":11,"el":30,"az":284,"ss":26,"used":false},{"PRN":14,"el":25,"az":123,"ss":0,"used":false},{"PRN":15,"el":0,"az":22,"ss":0,"used":false},{"PRN":16,"el":13,"az":197,"ss":0,"used":false},{"PRN":18,"el":28,"az":54,"ss":14,"used":true},{"PRN":19,"el":75,"az":283,"ss":35,"used":true},{"PRN":21,"el":10,"az":87,"ss":0,"used":false},{"PRN":22,"el":65,"az":78,"ss":40,"used":true},{"PRN":27,"el":66,"az":161,"ss":35,"used":true},{"PRN":28,"el":7,"az":333,"ss":20,"used":false},{"PRN":32,"el":18,"az":212,"ss":28,"used":false}]}
{"class":"TPV","tag":"GLL","device":"/dev/gps0","mode":3,"time":"2014-08-05T17:22:50.000Z","ept":0.005,"lat":48.319998333,"lon":16.209233333,"alt":208.200,"epx":36.165,"epy":94.102,"epv":44.518,"track":0.0000,"speed":0.185,"climb":0.000,"eps":188.20}
{"class":"SKY","tag":"GSV","device":"/dev/gps0","xdop":2.41,"ydop":6.27,"vdop":1.94,"tdop":1.96,"hdop":6.72,"gdop":7.26,"pdop":6.99,"satellites":[{"PRN":1,"el":13,"az":272,"ss":0,"used":false},{"PRN":3,"el":72,"az":241,"ss":0,"used":false},{"PRN":11,"el":30,"az":284,"ss":22,"used":false},{"PRN":14,"el":25,"az":123,"ss":0,"used":false},{"PRN":15,"el":0,"az":22,"ss":0,"used":false},{"PRN":16,"el":13,"az":197,"ss":0,"used":false},{"PRN":18,"el":28,"az":54,"ss":10,"used":true},{"PRN":19,"el":75,"az":283,"ss":35,"used":true},{"PRN":21,"el":10,"az":87,"ss":0,"used":false},{"PRN":22,"el":65,"az":78,"ss":40,"used":true},{"PRN":27,"el":66,"az":161,"ss":36,"used":true},{"PRN":28,"el":7,"az":333,"ss":21,"used":false},{"PRN":32,"el":18,"az":212,"ss":29,"used":false}]}
{"class":"TPV","tag":"GLL","device":"/dev/gps0","mode":3,"time":"2014-08-05T17:22:51.000Z","ept":0.005,"lat":48.319988333,"lon":16.209236667,"alt":208.200,"epx":36.165,"epy":94.102,"epv":44.518,"track":0.0000,"speed":0.098,"climb":0.000,"eps":188.20}
{"class":"SKY","tag":"GSV","device":"/dev/gps0","satellites":[{"PRN":1,"el":13,"az":272,"ss":0,"used":false},{"PRN":3,"el":72,"az":241,"ss":0,"used":false},{"PRN":11,"el":30,"az":284,"ss":24,"used":false},{"PRN":14,"el":25,"az":123,"ss":0,"used":false},{"PRN":15,"el":0,"az":22,"ss":0,"used":false},{"PRN":16,"el":13,"az":197,"ss":0,"used":false},{"PRN":18,"el":28,"az":54,"ss":9,"used":false},{"PRN":19,"el":75,"az":283,"ss":34,"used":true},{"PRN":21,"el":10,"az":87,"ss":0,"used":false},{"PRN":22,"el":65,"az":78,"ss":40,"used":true},{"PRN":27,"el":66,"az":161,"ss":38,"used":true},{"PRN":28,"el":7,"az":333,"ss":23,"used":false},{"PRN":32,"el":18,"az":212,"ss":29,"used":false}]}
{"class":"TPV","tag":"GLL","device":"/dev/gps0","mode":3,"time":"2014-08-05T17:22:52.000Z","ept":0.005,"lat":48.319976667,"lon":16.209245000,"alt":208.200,"epx":36.165,"epy":94.102,"epv":44.518,"track":0.0000,"speed":0.648,"climb":0.000,"eps":188.20}
{"class":"SKY","tag":"GSV","device":"/dev/gps0","satellites":[{"PRN":1,"el":13,"az":272,"ss":0,"used":false},{"PRN":3,"el":72,"az":241,"ss":0,"used":false},{"PRN":11,"el":30,"az":284,"ss":33,"used":false},{"PRN":14,"el":25,"az":123,"ss":0,"used":false},{"PRN":15,"el":0,"az":22,"ss":0,"used":false},{"PRN":16,"el":13,"az":197,"ss":0,"used":false},{"PRN":18,"el":28,"az":54,"ss":8,"used":false},{"PRN":19,"el":75,"az":283,"ss":36,"used":true},{"PRN":21,"el":10,"az":87,"ss":0,"used":false},{"PRN":22,"el":65,"az":78,"ss":38,"used":true},{"PRN":27,"el":66,"az":161,"ss":39,"used":true},{"PRN":28,"el":7,"az":333,"ss":22,"used":false},{"PRN":32,"el":18,"az":212,"ss":28,"used":false}]}
{"class":"TPV","tag":"GLL","device":"/dev/gps0","mode":3,"time":"2014-08-05T17:22:53.000Z","ept":0.005,"lat":48.319978333,"lon":16.209238333,"alt":208.200,"epv":23.000,"track":0.0000,"speed":0.190,"climb":0.000}
{"class":"SKY","tag":"GSV","device":"/dev/gps0","satellites":[{"PRN":1,"el":13,"az":272,"ss":0,"used":false},{"PRN":3,"el":72,"az":241,"ss":0,"used":false},{"PRN":11,"el":30,"az":284,"ss":36,"used":false},{"PRN":14,"el":25,"az":123,"ss":0,"used":false},{"PRN":15,"el":0,"az":22,"ss":0,"used":false},{"PRN":16,"el":13,"az":197,"ss":0,"used":false},{"PRN":18,"el":28,"az":54,"ss":9,"used":false},{"PRN":19,"el":75,"az":283,"ss":31,"used":true},{"PRN":21,"el":10,"az":87,"ss":0,"used":false},{"PRN":22,"el":65,"az":78,"ss":30,"used":true},{"PRN":27,"el":66,"az":161,"ss":36,"used":true},{"PRN":28,"el":7,"az":333,"ss":20,"used":false},{"PRN":32,"el":18,"az":212,"ss":27,"used":false}]}
{"class":"TPV","tag":"GLL","device":"/dev/gps0","mode":3,"time":"2014-08-05T17:22:54.000Z","ept":0.005,"lat":48.319980000,"lon":16.209238333,"alt":208.200,"epv":23.000,"track":0.0000,"speed":0.129,"climb":0.000}
{"class":"SKY","tag":"GSV","device":"/dev/gps0","satellites":[{"PRN":1,"el":13,"az":272,"ss":0,"used":false},{"PRN":3,"el":72,"az":241,"ss":0,"used":false},{"PRN":11,"el":30,"az":284,"ss":36,"used":false},{"PRN":14,"el":25,"az":123,"ss":0,"used":false},{"PRN":15,"el":0,"az":22,"ss":0,"used":false},{"PRN":16,"el":13,"az":197,"ss":0,"used":false},{"PRN":18,"el":28,"az":54,"ss":0,"used":false},{"PRN":19,"el":75,"az":283,"ss":31,"used":true},{"PRN":21,"el":10,"az":87,"ss":0,"used":false},{"PRN":22,"el":65,"az":78,"ss":37,"used":true},{"PRN":27,"el":66,"az":161,"ss":36,"used":true},{"PRN":28,"el":7,"az":333,"ss":19,"used":false},{"PRN":32,"el":18,"az":212,"ss":28,"used":false}]}
{"class":"TPV","tag":"GLL","device":"/dev/gps0","mode":3,"time":"2014-08-05T17:22:55.000Z","ept":0.005,"lat":48.319981667,"lon":16.209238333,"alt":208.200,"epv":23.000,"track":0.0000,"speed":0.057,"climb":0.000}
{"class":"SKY","tag":"GSV","device":"/dev/gps0","satellites":[{"PRN":1,"el":13,"az":272,"ss":0,"used":false},{"PRN":3,"el":72,"az":241,"ss":0,"used":false},{"PRN":11,"el":30,"az":284,"ss":35,"used":false},{"PRN":14,"el":25,"az":123,"ss":0,"used":false},{"PRN":15,"el":0,"az":22,"ss":0,"used":false},{"PRN":16,"el":13,"az":197,"ss":0,"used":false},{"PRN":18,"el":28,"az":54,"ss":0,"used":false},{"PRN":19,"el":75,"az":283,"ss":30,"used":true},{"PRN":21,"el":10,"az":87,"ss":0,"used":false},{"PRN":22,"el":65,"az":78,"ss":34,"used":true},{"PRN":27,"el":66,"az":161,"ss":36,"used":true},{"PRN":28,"el":7,"az":333,"ss":20,"used":false},{"PRN":32,"el":18,"az":212,"ss":28,"used":false}]}
{"class":"TPV","tag":"GLL","device":"/dev/gps0","mode":3,"time":"2014-08-05T17:22:56.000Z","ept":0.005,"lat":48.319986667,"lon":16.209238333,"alt":208.200,"epv":23.000,"track":0.0000,"speed":0.206,"climb":0.000}
{"class":"SKY","tag":"GSV","device":"/dev/gps0","satellites":[{"PRN":1,"el":13,"az":272,"ss":0,"used":false},{"PRN":3,"el":72,"az":241,"ss":0,"used":false},{"PRN":11,"el":30,"az":284,"ss":19,"used":false},{"PRN":14,"el":25,"az":123,"ss":0,"used":false},{"PRN":15,"el":0,"az":22,"ss":0,"used":false},{"PRN":16,"el":13,"az":197,"ss":0,"used":false},{"PRN":18,"el":28,"az":54,"ss":0,"used":false},{"PRN":19,"el":75,"az":283,"ss":31,"used":true},{"PRN":21,"el":10,"az":87,"ss":0,"used":false},{"PRN":22,"el":65,"az":78,"ss":31,"used":true},{"PRN":27,"el":66,"az":161,"ss":32,"used":true},{"PRN":28,"el":7,"az":333,"ss":20,"used":false},{"PRN":32,"el":18,"az":212,"ss":28,"used":false}]}
{"class":"TPV","tag":"GLL","device":"/dev/gps0","mode":3,"time":"2014-08-05T17:22:57.000Z","ept":0.005,"lat":48.319988333,"lon":16.209230000,"alt":208.200,"epv":23.000,"track":0.0000,"speed":0.376,"climb":0.000}
{"class":"SKY","tag":"GSV","device":"/dev/gps0","xdop":2.41,"ydop":6.27,"vdop":1.94,"tdop":1.96,"hdop":6.72,"gdop":7.26,"pdop":6.99,"satellites":[{"PRN":1,"el":13,"az":272,"ss":21,"used":false},{"PRN":3,"el":72,"az":241,"ss":0,"used":false},{"PRN":11,"el":30,"az":284,"ss":31,"used":false},{"PRN":14,"el":25,"az":123,"ss":0,"used":false},{"PRN":15,"el":0,"az":22,"ss":0,"used":false},{"PRN":16,"el":13,"az":197,"ss":0,"used":false},{"PRN":18,"el":28,"az":54,"ss":16,"used":true},{"PRN":19,"el":75,"az":283,"ss":26,"used":true},{"PRN":21,"el":10,"az":87,"ss":0,"used":false},{"PRN":22,"el":65,"az":78,"ss":29,"used":true},{"PRN":27,"el":66,"az":161,"ss":31,"used":true},{"PRN":28,"el":7,"az":333,"ss":19,"used":false},{"PRN":32,"el":18,"az":212,"ss":16,"used":false}]}
{"class":"TPV","tag":"GLL","device":"/dev/gps0","mode":3,"time":"2014-08-05T17:22:58.000Z","ept":0.005,"lat":48.319995000,"lon":16.209238333,"alt":208.200,"epx":36.165,"epy":94.102,"epv":23.000,"track":0.0000,"speed":0.664,"climb":0.000}
{"class":"SKY","tag":"GSV","device":"/dev/gps0","xdop":2.41,"ydop":6.27,"vdop":1.94,"tdop":1.96,"hdop":6.72,"gdop":7.26,"pdop":6.99,"satellites":[{"PRN":1,"el":13,"az":272,"ss":18,"used":false},{"PRN":3,"el":72,"az":241,"ss":0,"used":false},{"PRN":11,"el":30,"az":284,"ss":21,"used":false},{"PRN":14,"el":25,"az":123,"ss":0,"used":false},{"PRN":15,"el":0,"az":22,"ss":0,"used":false},{"PRN":16,"el":13,"az":197,"ss":0,"used":false},{"PRN":18,"el":28,"az":54,"ss":13,"used":true},{"PRN":19,"el":75,"az":283,"ss":23,"used":true},{"PRN":21,"el":10,"az":87,"ss":0,"used":false},{"PRN":22,"el":65,"az":78,"ss":27,"used":true},{"PRN":27,"el":66,"az":161,"ss":25,"used":true},{"PRN":28,"el":7,"az":333,"ss":16,"used":false},{"PRN":32,"el":18,"az":212,"ss":18,"used":false}]}
{"class":"TPV","tag":"GLL","device":"/dev/gps0","mode":3,"time":"2014-08-05T17:22:59.000Z","ept":0.005,"lat":48.320006667,"lon":16.209238333,"alt":208.200,"epx":36.165,"epy":94.102,"epv":44.518,"track":0.0000,"speed":1.029,"climb":0.000,"eps":188.20}
{"class":"SKY","tag":"GSV","device":"/dev/gps0","xdop":2.41,"ydop":6.27,"vdop":1.94,"tdop":1.96,"hdop":6.72,"gdop":7.26,"pdop":6.99,"satellites":[{"PRN":1,"el":13,"az":272,"ss":14,"used":false},{"PRN":3,"el":72,"az":241,"ss":0,"used":false},{"PRN":11,"el":30,"az":284,"ss":29,"used":false},{"PRN":14,"el":25,"az":123,"ss":0,"used":false},{"PRN":15,"el":0,"az":22,"ss":0,"used":false},{"PRN":16,"el":13,"az":197,"ss":0,"used":false},{"PRN":18,"el":28,"az":54,"ss":10,"used":true},{"PRN":19,"el":75,"az":283,"ss":24,"used":true},{"PRN":21,"el":10,"az":87,"ss":0,"used":false},{"PRN":22,"el":65,"az":78,"ss":32,"used":true},{"PRN":27,"el":66,"az":161,"ss":26,"used":true},{"PRN":28,"el":7,"az":333,"ss":16,"used":false},{"PRN":32,"el":18,"az":212,"ss":17,"used":false}]}
{"class":"TPV","tag":"GLL","device":"/dev/gps0","mode":3,"time":"2014-08-05T17:23:00.000Z","ept":0.005,"lat":48.320015000,"lon":16.209223333,"alt":208.200,"epx":36.165,"epy":94.102,"epv":44.518,"track":0.0000,"speed":1.116,"climb":0.000,"eps":188.20}
{"class":"SKY","tag":"GSV","device":"/dev/gps0","satellites":[{"PRN":1,"el":13,"az":272,"ss":13,"used":false},{"PRN":3,"el":72,"az":241,"ss":0,"used":false},{"PRN":11,"el":30,"az":284,"ss":28,"used":false},{"PRN":14,"el":25,"az":123,"ss":0,"used":false},{"PRN":15,"el":0,"az":22,"ss":0,"used":false},{"PRN":16,"el":13,"az":197,"ss":0,"used":false},{"PRN":18,"el":28,"az":54,"ss":8,"used":false},{"PRN":19,"el":75,"az":283,"ss":23,"used":true},{"PRN":21,"el":10,"az":87,"ss":0,"used":false},{"PRN":22,"el":65,"az":78,"ss":27,"used":true},{"PRN":27,"el":66,"az":161,"ss":26,"used":true},{"PRN":28,"el":7,"az":333,"ss":18,"used":false},{"PRN":32,"el":18,"az":212,"ss":17,"used":false}]}
{"class":"TPV","tag":"GLL","device":"/dev/gps0","mode":3,"time":"2014-08-05T17:23:01.000Z","ept":0.005,"lat":48.320010000,"lon":16.209223333,"alt":208.200,"epx":36.165,"epy":94.102,"epv":44.518,"track":0.0000,"speed":0.478,"climb":0.000,"eps":188.20}
{"class":"SKY","tag":"GSV","device":"/dev/gps0","satellites":[{"PRN":1,"el":13,"az":272,"ss":12,"used":false},{"PRN":3,"el":72,"az":241,"ss":0,"used":false},{"PRN":11,"el":30,"az":284,"ss":26,"used":false},{"PRN":14,"el":25,"az":123,"ss":0,"used":false},{"PRN":15,"el":0,"az":22,"ss":0,"used":false},{"PRN":16,"el":13,"az":197,"ss":0,"used":false},{"PRN":18,"el":28,"az":54,"ss":8,"used":false},{"PRN":19,"el":75,"az":283,"ss":23,"used":false},{"PRN":21,"el":10,"az":87,"ss":0,"used":false},{"PRN":22,"el":65,"az":78,"ss":25,"used":false},{"PRN":27,"el":66,"az":161,"ss":25,"used":false},{"PRN":28,"el":7,"az":333,"ss":17,"used":false},{"PRN":32,"el":18,"az":212,"ss":18,"used":false}]}
{"class":"TPV","tag":"GLL","device":"/dev/gps0","mode":0,"time":"2014-08-05T17:23:02.000Z","ept":0.005}
{"class":"SKY","tag":"GSV","device":"/dev/gps0","satellites":[{"PRN":1,"el":13,"az":272,"ss":10,"used":false},{"PRN":3,"el":72,"az":241,"ss":0,"used":false},{"PRN":11,"el":30,"az":284,"ss":30,"used":false},{"PRN":14,"el":25,"az":123,"ss":0,"used":false},{"PRN":15,"el":0,"az":22,"ss":18,"used":false},{"PRN":16,"el":13,"az":197,"ss":0,"used":false},{"PRN":18,"el":28,"az":54,"ss":0,"used":false},{"PRN":19,"el":75,"az":283,"ss":23,"used":false},{"PRN":21,"el":10,"az":87,"ss":0,"used":false},{"PRN":22,"el":65,"az":78,"ss":0,"used":false},{"PRN":27,"el":66,"az":161,"ss":29,"used":false},{"PRN":28,"el":7,"az":333,"ss":17,"used":false},{"PRN":32,"el":18,"az":212,"ss":18,"used":false}]}
{"class":"TPV","tag":"GLL","device":"/dev/gps0","mode":0,"time":"2014-08-05T17:23:03.000Z","ept":0.005}
{"class":"SKY","tag":"GSV","device":"/dev/gps0","satellites":[{"PRN":1,"el":13,"az":272,"ss":10,"used":false},{"PRN":3,"el":72,"az":241,"ss":0,"used":false},{"PRN":11,"el":30,"az":284,"ss":29,"used":false},{"PRN":14,"el":25,"az":123,"ss":0,"used":false},{"PRN":15,"el":0,"az":22,"ss":16,"used":false},{"PRN":16,"el":13,"az":197,"ss":0,"used":false},{"PRN":18,"el":28,"az":54,"ss":0,"used":false},{"PRN":19,"el":75,"az":283,"ss":30,"used":false},{"PRN":21,"el":10,"az":87,"ss":0,"used":false},{"PRN":22,"el":65,"az":78,"ss":22,"used":false},{"PRN":27,"el":66,"az":161,"ss":24,"used":false},{"PRN":28,"el":7,"az":333,"ss":16,"used":false},{"PRN":32,"el":18,"az":212,"ss":21,"used":false}]}
{"class":"TPV","tag":"GLL","device":"/dev/gps0","mode":0,"time":"2014-08-05T17:23:04.000Z","ept":0.005}
{"class":"SKY","tag":"GSV","device":"/dev/gps0","satellites":[{"PRN":1,"el":13,"az":272,"ss":9,"used":false},{"PRN":3,"el":72,"az":241,"ss":0,"used":false},{"PRN":11,"el":30,"az":284,"ss":22,"used":false},{"PRN":14,"el":25,"az":123,"ss":0,"used":false},{"PRN":15,"el":0,"az":22,"ss":15,"used":false},{"PRN":16,"el":13,"az":197,"ss":0,"used":false},{"PRN":18,"el":28,"az":54,"ss":0,"used":false},{"PRN":19,"el":75,"az":283,"ss":23,"used":false},{"PRN":21,"el":10,"az":87,"ss":0,"used":false},{"PRN":22,"el":65,"az":78,"ss":22,"used":false},{"PRN":27,"el":66,"az":161,"ss":24,"used":false},{"PRN":28,"el":7,"az":333,"ss":18,"used":false},{"PRN":32,"el":18,"az":212,"ss":22,"used":false}]}
{"class":"TPV","tag":"GLL","device":"/dev/gps0","mode":0,"time":"2014-08-05T17:23:05.000Z","ept":0.005}
{"class":"SKY","tag":"GSV","device":"/dev/gps0","satellites":[{"PRN":1,"el":13,"az":272,"ss":10,"used":false},{"PRN":3,"el":72,"az":241,"ss":0,"used":false},{"PRN":11,"el":30,"az":284,"ss":23,"used":false},{"PRN":14,"el":25,"az":123,"ss":0,"used":false},{"PRN":15,"el":0,"az":22,"ss":0,"used":false},{"PRN":16,"el":13,"az":197,"ss":0,"used":false},{"PRN":18,"el":28,"az":54,"ss":0,"used":false},{"PRN":19,"el":75,"az":283,"ss":25,"used":false},{"PRN":21,"el":10,"az":87,"ss":0,"used":false},{"PRN":22,"el":65,"az":78,"ss":22,"used":false},{"PRN":27,"el":66,"az":161,"ss":24,"used":false},{"PRN":28,"el":7,"az":333,"ss":22,"used":false},{"PRN":32,"el":18,"az":212,"ss":20,"used":false}]}
{"class":"TPV","tag":"GLL","device":"/dev/gps0","mode":0,"time":"2014-08-05T17:23:06.000Z","ept":0.005}
{"class":"SKY","tag":"GSV","device":"/dev/gps0","satellites":[{"PRN":1,"el":13,"az":272,"ss":9,"used":false},{"PRN":3,"el":72,"az":241,"ss":0,"used":false},{"PRN":11,"el":30,"az":284,"ss":33,"used":false},{"PRN":14,"el":25,"az":123,"ss":0,"used":false},{"PRN":15,"el":0,"az":22,"ss":23,"used":false},{"PRN":16,"el":13,"az":197,"ss":0,"used":false},{"PRN":18,"el":28,"az":54,"ss":0,"used":false},{"PRN":19,"el":75,"az":283,"ss":25,"used":false},{"PRN":21,"el":10,"az":87,"ss":0,"used":false},{"PRN":22,"el":65,"az":78,"ss":0,"used":false},{"PRN":27,"el":66,"az":161,"ss":35,"used":false},{"PRN":28,"el":7,"az":333,"ss":20,"used":false},{"PRN":32,"el":18,"az":212,"ss":19,"used":false}]}
{"class":"TPV","tag":"GLL","device":"/dev/gps0","mode":0,"time":"2014-08-05T17:23:07.000Z","ept":0.005}
{"class":"SKY","tag":"GSV","device":"/dev/gps0","satellites":[{"PRN":1,"el":13,"az":272,"ss":10,"used":false},{"PRN":3,"el":72,"az":241,"ss":0,"used":false},{"PRN":11,"el":30,"az":284,"ss":23,"used":false},{"PRN":14,"el":25,"az":123,"ss":0,"used":false},{"PRN":15,"el":0,"az":22,"ss":20,"used":false},{"PRN":16,"el":13,"az":197,"ss":0,"used":false},{"PRN":18,"el":28,"az":54,"ss":0,"used":false},{"PRN":19,"el":75,"az":283,"ss":31,"used":false},{"PRN":21,"el":10,"az":87,"ss":0,"used":false},{"PRN":22,"el":65,"az":78,"ss":27,"used":false},{"PRN":27,"el":66,"az":161,"ss":27,"used":false},{"PRN":28,"el":7,"az":333,"ss":16,"used":false},{"PRN":32,"el":18,"az":212,"ss":17,"used":false}]}
{"class":"TPV","tag":"GLL","device":"/dev/gps0","mode":0,"time":"2014-08-05T17:23:08.000Z","ept":0.005}
{"class":"SKY","tag":"GSV","device":"/dev/gps0","satellites":[{"PRN":1,"el":13,"az":272,"ss":13,"used":false},{"PRN":3,"el":72,"az":241,"ss":0,"used":false},{"PRN":11,"el":30,"az":284,"ss":37,"used":false},{"PRN":14,"el":25,"az":123,"ss":0,"used":false},{"PRN":15,"el":0,"az":22,"ss":0,"used":false},{"PRN":16,"el":13,"az":197,"ss":0,"used":false},{"PRN":18,"el":28,"az":54,"ss":0,"used":false},{"PRN":19,"el":75,"az":283,"ss":40,"used":true},{"PRN":21,"el":10,"az":87,"ss":0,"used":false},{"PRN":22,"el":65,"az":78,"ss":38,"used":true},{"PRN":27,"el":66,"az":161,"ss":45,"used":true},{"PRN":28,"el":7,"az":333,"ss":18,"used":false},{"PRN":32,"el":18,"az":212,"ss":29,"used":false}]}
{"class":"TPV","tag":"GLL","device":"/dev/gps0","mode":3,"time":"2014-08-05T17:23:09.000Z","ept":0.005,"lat":48.319973333,"lon":16.209265000,"alt":208.100,"epv":23.000,"track":0.0000,"speed":0.190,"climb":0.000}
{"class":"SKY","tag":"GSV","device":"/dev/gps0","satellites":[{"PRN":1,"el":13,"az":272,"ss":20,"used":false},{"PRN":3,"el":72,"az":241,"ss":0,"used":false},{"PRN":11,"el":30,"az":284,"ss":39,"used":false},{"PRN":14,"el":25,"az":123,"ss":0,"used":false},{"PRN":15,"el":0,"az":22,"ss":23,"used":false},{"PRN":16,"el":13,"az":197,"ss":0,"used":false},{"PRN":18,"el":28,"az":54,"ss":0,"used":false},{"PRN":19,"el":75,"az":283,"ss":36,"used":true},{"PRN":21,"el":10,"az":87,"ss":0,"used":false},{"PRN":22,"el":65,"az":78,"ss":37,"used":true},{"PRN":27,"el":66,"az":161,"ss":45,"used":true},{"PRN":28,"el":7,"az":333,"ss":20,"used":false},{"PRN":32,"el":18,"az":212,"ss":30,"used":false}]}
{"class":"TPV","tag":"GLL","device":"/dev/gps0","mode":3,"time":"2014-08-05T17:23:10.000Z","ept":0.005,"lat":48.319973333,"lon":16.209266667,"alt":208.100,"epv":23.000,"track":0.0000,"speed":0.113,"climb":0.000}
{"class":"SKY","tag":"GSV","device":"/dev/gps0","xdop":2.41,"ydop":6.27,"vdop":1.94,"tdop":1.96,"hdop":6.72,"gdop":7.26,"pdop":6.99,"satellites":[{"PRN":1,"el":13,"az":272,"ss":22,"used":false},{"PRN":3,"el":72,"az":241,"ss":0,"used":false},{"PRN":11,"el":30,"az":284,"ss":39,"used":false},{"PRN":14,"el":25,"az":123,"ss":0,"used":false},{"PRN":15,"el":0,"az":22,"ss":20,"used":false},{"PRN":16,"el":13,"az":197,"ss":0,"used":false},{"PRN":18,"el":28,"az":54,"ss":15,"used":true},{"PRN":19,"el":75,"az":283,"ss":36,"used":true},{"PRN":21,"el":10,"az":87,"ss":0,"used":false},{"PRN":22,"el":65,"az":78,"ss":37,"used":true},{"PRN":27,"el":66,"az":161,"ss":45,"used":true},{"PRN":28,"el":7,"az":333,"ss":21,"used":false},{"PRN":32,"el":18,"az":212,"ss":29,"used":false}]}
{"class":"TPV","tag":"GLL","device":"/dev/gps0","mode":3,"time":"2014-08-05T17:23:11.000Z","ept":0.005,"lat":48.319985000,"lon":16.209246667,"alt":208.100,"epx":36.165,"epy":94.102,"epv":23.000,"track":0.0000,"speed":0.211,"climb":0.000}
{"class":"SKY","tag":"GSV","device":"/dev/gps0","xdop":2.41,"ydop":6.27,"vdop":1.94,"tdop":1.96,"hdop":6.72,"gdop":7.26,"pdop":6.99,"satellites":[{"PRN":1,"el":13,"az":272,"ss":24,"used":false},{"PRN":3,"el":72,"az":241,"ss":0,"used":false},{"PRN":11,"el":30,"az":284,"ss":39,"used":false},{"PRN":14,"el":25,"az":123,"ss":0,"used":false},{"PRN":15,"el":0,"az":22,"ss":0,"used":false},{"PRN":16,"el":13,"az":197,"ss":0,"used":false},{"PRN":18,"el":28,"az":54,"ss":14,"used":true},{"PRN":19,"el":75,"az":283,"ss":37,"used":true},{"PRN":21,"el":10,"az":87,"ss":0,"used":false},{"PRN":22,"el":65,"az":78,"ss":36,"used":true},{"PRN":27,"el":66,"az":161,"ss":45,"used":true},{"PRN":28,"el":7,"az":333,"ss":20,"used":false},{"PRN":32,"el":18,"az":212,"ss":27,"used":false}]}
{"class":"TPV","tag":"GLL","device":"/dev/gps0","mode":3,"time":"2014-08-05T17:23:12.000Z","ept":0.005,"lat":48.319983333,"lon":16.209288333,"alt":208.100,"epx":36.165,"epy":94.102,"epv":44.518,"track":0.0000,"speed":0.149,"climb":0.000,"eps":188.20}
{"class":"SKY","tag":"GSV","device":"/dev/gps0","satellites":[{"PRN":1,"el":13,"az":272,"ss":22,"used":false},{"PRN":3,"el":72,"az":241,"ss":0,"used":false},{"PRN":11,"el":30,"az":284,"ss":38,"used":false},{"PRN":14,"el":25,"az":123,"ss":0,"used":false},{"PRN":15,"el":0,"az":22,"ss":25,"used":false},{"PRN":16,"el":13,"az":197,"ss":0,"used":false},{"PRN":18,"el":28,"az":54,"ss":13,"used":false},{"PRN":19,"el":75,"az":283,"ss":36,"used":true},{"PRN":21,"el":10,"az":87,"ss":0,"used":false},{"PRN":22,"el":65,"az":78,"ss":37,"used":true},{"PRN":27,"el":66,"az":161,"ss":45,"used":true},{"PRN":28,"el":7,"az":333,"ss":20,"used":false},{"PRN":32,"el":18,"az":212,"ss":26,"used":false}]}
{"class":"TPV","tag":"GLL","device":"/dev/gps0","mode":3,"time":"2014-08-05T17:23:13.000Z","ept":0.005,"lat":48.319980000,"lon":16.209275000,"alt":208.100,"epx":36.165,"epy":94.102,"epv":44.518,"track":0.0000,"speed":0.165,"climb":0.000,"eps":188.20}
{"class":"SKY","tag":"GSV","device":"/dev/gps0","satellites":[{"PRN":1,"el":13,"az":272,"ss":21,"used":false},{"PRN":3,"el":72,"az":241,"ss":0,"used":false},{"PRN":11,"el":30,"az":284,"ss":38,"used":false},{"PRN":14,"el":25,"az":123,"ss":0,"used":false},{"PRN":15,"el":0,"az":22,"ss":0,"used":false},{"PRN":16,"el":13,"az":197,"ss":0,"used":false},{"PRN":18,"el":28,"az":54,"ss":10,"used":false},{"PRN":19,"el":75,"az":283,"ss":36,"used":true},{"PRN":21,"el":10,"az":87,"ss":0,"used":false},{"PRN":22,"el":65,"az":78,"ss":37,"used":true},{"PRN":27,"el":66,"az":161,"ss":44,"used":true},{"PRN":28,"el":7,"az":333,"ss":21,"used":false},{"PRN":32,"el":18,"az":212,"ss":25,"used":false}]}
{"class":"TPV","tag":"GLL","device":"/dev/gps0","mode":3,"time":"2014-08-05T17:23:14.000Z","ept":0.005,"lat":48.319963333,"lon":16.209270000,"alt":208.100,"epv":23.000,"track":0.0000,"speed":0.370,"climb":0.000}
{"class":"SKY","tag":"GSV","device":"/dev/gps0","satellites":[{"PRN":1,"el":13,"az":272,"ss":22,"used":false},{"PRN":3,"el":72,"az":241,"ss":0,"used":false},{"PRN":11,"el":30,"az":284,"ss":41,"used":false},{"PRN":14,"el":25,"az":123,"ss":0,"used":false},{"PRN":15,"el":0,"az":22,"ss":0,"used":false},{"PRN":16,"el":13,"az":197,"ss":0,"used":false},{"PRN":18,"el":28,"az":54,"ss":10,"used":false},{"PRN":19,"el":75,"az":283,"ss":38,"used":true},{"PRN":21,"el":10,"az":87,"ss":0,"used":false},{"PRN":22,"el":65,"az":78,"ss":37,"used":true},{"PRN":27,"el":66,"az":161,"ss":44,"used":true},{"PRN":28,"el":7,"az":333,"ss":21,"used":false},{"PRN":32,"el":18,"az":212,"ss":25,"used":false}]}
{"class":"TPV","tag":"GLL","device":"/dev/gps0","mode":3,"time":"2014-08-05T17:23:15.000Z","ept":0.005,"lat":48.319965000,"lon":16.209266667,"alt":208.100,"epv":23.000,"track":0.0000,"speed":0.237,"climb":0.000}
{"class":"SKY","tag":"GSV","device":"/dev/gps0","satellites":[{"PRN":1,"el":13,"az":272,"ss":23,"used":false},{"PRN":3,"el":72,"az":241,"ss":0,"used":false},{"PRN":11,"el":30,"az":284,"ss":40,"used":false},{"PRN":14,"el":25,"az":123,"ss":0,"used":false},{"PRN":15,"el":0,"az":22,"ss":0,"used":false},{"PRN":16,"el":13,"az":197,"ss":0,"used":false},{"PRN":18,"el":28,"az":54,"ss":9,"used":false},{"PRN":19,"el":75,"az":283,"ss":38,"used":true},{"PRN":21,"el":10,"az":87,"ss":0,"used":false},{"PRN":22,"el":65,"az":78,"ss":37,"used":true},{"PRN":27,"el":66,"az":161,"ss":44,"used":true},{"PRN":28,"el":7,"az":333,"ss":20,"used":false},{"PRN":32,"el":18,"az":212,"ss":25,"used":false}]}
{"class":"TPV","tag":"GLL","device":"/dev/gps0","mode":3,"time":"2014-08-05T17:23:16.000Z","ept":0.005,"lat":48.319958333,"lon":16.209246667,"alt":208.100,"epv":23.000,"track":0.0000,"speed":0.406,"climb":0.000}
{"class":"SKY","tag":"GSV","device":"/dev/gps0","xdop":2.41,"ydop":6.27,"vdop":1.94,"tdop":1.96,"hdop":6.72,"gdop":7.26,"pdop":6.99,"satellites":[{"PRN":1,"el":13,"az":272,"ss":22,"used":false},{"PRN":3,"el":72,"az":241,"ss":0,"used":false},{"PRN":11,"el":30,"az":284,"ss":40,"used":false},{"PRN":14,"el":25,"az":123,"ss":0,"used":false},{"PRN":15,"el":0,"az":22,"ss":0,"used":false},{"PRN":16,"el":13,"az":197,"ss":0,"used":false},{"PRN":18,"el":28,"az":54,"ss":10,"used":true},{"PRN":19,"el":75,"az":283,"ss":38,"used":true},{"PRN":21,"el":10,"az":87,"ss":0,"used":false},{"PRN":22,"el":65,"az":78,"ss":37,"used":true},{"PRN":27,"el":66,"az":161,"ss":44,"used":true},{"PRN":28,"el":7,"az":333,"ss":19,"used":false},{"PRN":32,"el":18,"az":212,"ss":27,"used":false}]}
{"class":"TPV","tag":"GLL","device":"/dev/gps0","mode":3,"time":"2014-08-05T17:23:17.000Z","ept":0.005,"lat":48.319960000,"lon":16.209255000,"alt":208.200,"epx":36.165,"epy":94.102,"epv":23.000,"track":0.0000,"speed":0.319,"climb":0.000}
{"class":"SKY","tag":"GSV","device":"/dev/gps0","xdop":2.41,"ydop":6.27,"vdop":1.94,"tdop":1.96,"hdop":6.72,"gdop":7.26,"pdop":6.99,"satellites":[{"PRN":1,"el":13,"az":272,"ss":21,"used":false},{"PRN":3,"el":72,"az":241,"ss":0,"used":false},{"PRN":11,"el":30,"az":284,"ss":30,"used":false},{"PRN":14,"el":25,"az":123,"ss":0,"used":false},{"PRN":15,"el":0,"az":22,"ss":0,"used":false},{"PRN":16,"el":13,"az":197,"ss":0,"used":false},{"PRN":18,"el":28,"az":54,"ss":10,"used":true},{"PRN":19,"el":75,"az":283,"ss":27,"used":true},{"PRN":21,"el":10,"az":87,"ss":0,"used":false},{"PRN":22,"el":65,"az":78,"ss":30,"used":true},{"PRN":27,"el":66,"az":161,"ss":31,"used":true},{"PRN":28,"el":7,"az":333,"ss":19,"used":false},{"PRN":32,"el":18,"az":212,"ss":20,"used":false}]}
{"class":"TPV","tag":"GLL","device":"/dev/gps0","mode":3,"time":"2014-08-05T17:23:18.000Z","ept":0.005,"lat":48.319950000,"lon":16.209233333,"alt":208.200,"epx":36.165,"epy":94.102,"epv":44.518,"track":0.0000,"speed":1.924,"climb":0.000,"eps":188.20}
{"class":"SKY","tag":"GSV","device":"/dev/gps0","satellites":[{"PRN":1,"el":13,"az":272,"ss":20,"used":false},{"PRN":3,"el":72,"az":241,"ss":0,"used":false},{"PRN":11,"el":30,"az":284,"ss":29,"used":false},{"PRN":14,"el":25,"az":123,"ss":0,"used":false},{"PRN":15,"el":0,"az":22,"ss":0,"used":false},{"PRN":16,"el":13,"az":197,"ss":0,"used":false},{"PRN":18,"el":28,"az":54,"ss":8,"used":false},{"PRN":19,"el":75,"az":283,"ss":28,"used":false},{"PRN":21,"el":10,"az":87,"ss":0,"used":false},{"PRN":22,"el":65,"az":78,"ss":33,"used":false},{"PRN":27,"el":66,"az":161,"ss":40,"used":false},{"PRN":28,"el":7,"az":333,"ss":17,"used":false},{"PRN":32,"el":18,"az":212,"ss":28,"used":false}]}
{"class":"TPV","tag":"GLL","device":"/dev/gps0","mode":0,"time":"2014-08-05T17:23:19.000Z","ept":0.005}
